[
	{
		"lat": 21.358165,
		"lng": 39.980246000000001,
		"title": "Civil station 601",
		"snippet": "Iran"
	},
	{
		"lat": 21.359605999999999,
		"lng": 39.976796,
		"title": "Civil station 600",
		"snippet": "Iran"
	},
	{
		"lat": 21.359605999999999,
		"lng": 39.976796,
		"title": "Medical Center 31",
		"snippet": "Iran"
	},
	{
		"lat": 21.354724000000001,
		"lng": 39.983870000000003,
		"title": "Alrahmah mountain",
		"snippet": "0"
	},
	{
		"lat": 21.356252000000001,
		"lng": 39.976297000000002,
		"title": "Bus Station 200",
		"snippet": "Arab Country"
	},
	{
		"lat": 21.358440000000002,
		"lng": 39.972582000000003,
		"title": "Bus Station 225",
		"snippet": "Arab Country"
	},
	{
		"lat": 21.355547999999999,
		"lng": 39.977628000000003,
		"title": "Scouts - Near bus station 200",
		"snippet": "Arab Country"
	},
	{
		"lat": 21.352900999999999,
		"lng": 39.983621999999997,
		"title": "Al-rahmah Hospital",
		"snippet": "Arab Country"
	},
	{
		"lat": 21.352836,
		"lng": 39.973373000000002,
		"title": "Namrah Hospital",
		"snippet": "Arab Country"
	},
	{
		"lat": 21.353404999999999,
		"lng": 39.982024000000003,
		"title": "Police Station",
		"snippet": "Arab Country"
	},
	{
		"lat": 21.352528,
		"lng": 39.967038000000002,
		"title": "Namerah Mosque",
		"snippet": "Arab Country"
	},
	{
		"lat": 21.349905,
		"lng": 39.966296,
		"title": "Management of Makkah Region",
		"snippet": "Arab Country"
	}
]